stop_id,stop_code,stop_name,stop_desc,stop_lat,stop_lon,zone_id,stop_url,location_type,parent_station,wheelchair_boarding
100,100,Beaver Ruin Rd & Beaver Ridge Elementary,,33.933624999999999,-84.173502999999997,,,0,,0
1000,1002,Atkinson Rd & Herrington Rd,,33.973444000000001,-84.077346000000006,,,0,,0
1001,1042,Walther Blvd & C3 Church,,33.973106999999999,-84.017093000000003,,,0,,0
1002,1041,Riverside Pkwy & Golden Corral,,33.965525999999997,-84.036600000000007,,,0,,0
1003,1040,Riverside Pkwy & Duluth Hwy,,33.967635999999999,-84.035551999999996,,,0,,0
1004,1024,Walther Blvd & Parc 980 Apartments OB,,33.974792999999998,-84.014032999999998,,,0,,0
1007,1033,Duluth Hwy & Publix (L'ville Suwanee Rd),,33.968218,-84.024455000000003,,,0,,0
1009,1022,Riverside Pkwy & Kroger,,33.966769999999997,-84.035420999999999,,,0,,0
1010,1025,Collins Hill Rd & Park Access Dr IB,,33.974710000000002,-83.994103999999993,,,0,,0
1011,1029,Lakes Pkwy & Lakes Court Dr IB,,33.961882000000003,-84.041066000000001,,,0,,0
1012,1020,Lonnie Harvel Blvd & Sugar Oak Ln OB,,33.977474000000001,-84.012456,,,0,,0
1013,1008,Lawrenceville Suwanee Rd & AMC,,33.969681999999999,-84.019763999999995,,,0,,0
1014,1009,Hurricane Shoals Rd & Curtis Rd OB,,33.969253999999999,-83.995253000000005,,,0,,0
1016,1014,Lakes Pkwy & Laval Blvd (Truck Entrance),,33.960878000000001,-84.045675000000003,,,0,,0
1017,1015,Lakes Pkwy & WIKA,,33.963040999999997,-84.052364999999995,,,0,,0
1018,1011,Hurricane Shoals Rd & Whitehall Ln OB,,33.968544999999999,-84.000489999999999,,,0,,0
1019,1010,Hurricane Shoals Rd & Philip Blvd,,33.967947000000002,-84.004701999999995,,,0,,0
102,102,Beaver Ruin Rd & Twin Creek Dr,,33.940049000000002,-84.194580999999999,,,0,,0
1021,1017,Riverside Pkwy & Lakes Pkwy OB,,33.964325000000002,-84.036817999999997,,,0,,0
1022,1006,Duluth Hwy & Lakes Pkwy,,33.968499000000001,-84.033203,,,0,,0
1023,1028,Hurricane Shoals Rd & Whitehall Ln IB,,33.968395000000001,-84.00027,,,0,,0
1025,1037,Lonnie Harvel Blvd & Student Center IB,,33.982187000000003,-84.005037999999999,,,0,,0
1028,1007,Duluth Hwy & Lawrenceville Suwanee Rd,,33.968179999999997,-84.025526999999997,,,0,,0
1030,1013,Lakes Pkwy & Lakes Court Dr OB,,33.961373999999999,-84.041393999999997,,,0,,0
1033,1034,Lawrenceville Suwanee Rd & Verizon,,33.971378000000001,-84.018349000000001,,,0,,0
1034,1027,Hurricane Shoals Rd & Curtis Rd IB,,33.969414,-83.994510000000005,,,0,,0
1036,1021,Lonnie Harvel Blvd & Student Center OB,,33.981952999999997,-84.005194000000003,,,0,,0
1037,1023,Walther Blvd & IHOP,,33.972945000000003,-84.016918000000004,,,0,,0
104,104,Beaver Ruin Rd & Wexford Dr,,33.937859000000003,-84.188509999999994,,,0,,0
1041,1053,Woodruff Circle Emory,,33.793326999999998,-84.321512999999996,,,0,,0
1043,1055,Sugarloaf Mills P&R Local,,33.982844999999998,-84.084811000000002,,,0,,0
105,105,N Berkeley Lake Rd & Cross Road Dist,,33.969912999999998,-84.154171000000005,,,0,,0
11,13,Beaver Ruin Rd & Steve Reynolds Blvd,,33.931213999999997,-84.147358999999994,,,0,,0
1100,1063,Triangle Pkwy & Triangle Dr,,33.972644000000003,-84.222362000000004,,,0,,0
1102,1064,CDC (Center for Disease Control),,33.800508000000001,-84.326887999999997,,,0,,0
1103,1044,Walther Blvd & Parc 980 Apartments IB,,33.975158999999998,-84.013409999999993,,,0,,0
111,111,Best Friend Rd & Best Friend Ct OB,,33.919387999999998,-84.222621000000004,,,0,,0
112,112,Best Friend Rd & Best Friend Ct IB,,33.919471999999999,-84.222317000000004,,,0,,0
113,113,Brook Hollow Pkwy & Best Friend Rd OB,,33.921697999999999,-84.219948000000002,,,0,,0
114,114,Best Friend Rd & Brook Hollow Pkwy,,33.921325000000003,-84.220014000000006,,,0,,0
115,115,Best Friend Rd & Nancy Hanks Dr OB,,33.916913000000001,-84.226089999999999,,,0,,0
116,116,Best Friend Rd & Nancy Hanks Dr IB,,33.916795999999998,-84.226033999999999,,,0,,0
1161,188,Buford Hwy & Hillside Dr,,33.929036000000004,-84.236715000000004,,,0,,0
117,117,Best Friend Rd & Royal Palm Ct OB,,33.915618000000002,-84.233462000000003,,,0,,0
1173,269,Burns Rd & Springwood Dr IB,,33.907392999999999,-84.142868000000007,,,0,,0
1178,279,Button Gwinnett Dr & RUSH Ent (across),,33.919593999999996,-84.241755999999995,,,0,,0
118,118,Best Friend Rd & Royal Palm Ct IB,,33.915500999999999,-84.233080000000001,,,0,,0
1184,293,Club Dr & Shackleford Rd,,33.942659999999997,-84.140350999999995,,,0,,0
119,119,Best Friend Rd & Skyland Ct OB,,33.916055,-84.229996,,,0,,0
12,29,Breckinridge Blvd/Old Norcross Rd,,33.958446000000002,-84.110161000000005,,,0,,0
120,120,Best Friend Rd & Skyland Ct IB,,33.915942999999999,-84.229968,,,0,,0
121,121,Best Friend Rd & Button Gwinnett Dr IB,,33.913808000000003,-84.236366000000004,,,0,,0
122,122,Button Gwinnett Dr & Mimms Dr,,33.917448,-84.240082999999998,,,0,,0
123,123,Button Gwinnett Dr & Mimms Dr IB,,33.917403999999998,-84.240191999999993,,,0,,0
124,124,Brook Hollow Pkwy & FedEx Entrance,,33.919148999999997,-84.212826000000007,,,0,,0
1253,593,Park Dr & Beaver Ruin Rd IB,,33.933562000000002,-84.153022000000007,,,0,,0
126,126,Boggs Rd & Autumn Village Ct,,33.955281999999997,-84.094483999999994,,,0,,0
128,128,Boggs Rd & Astor Place Apts,,33.951411999999998,-84.091880000000003,,,0,,0
129,129,Boggs Rd & Magnolia Pointe Apts,,33.954013000000003,-84.093700999999996,,,0,,0
13,61,Brook Hollow Pkwy & N Norcross,,33.920546999999999,-84.214867999999996,,,0,,0
130,130,Boggs Rd & Post Office (Main Entrance),,33.958722000000002,-84.093975,,,0,,0
131,131,Boggs Rd & Quick Trip IB,,33.970779999999998,-84.098429999999993,,,0,,0
1312,876,Atkinson Rd & Atkinson Park Dr IB,,33.969061000000004,-84.073149000000001,,,0,,0
1314,935,Singleton Rd & Myrtle Creek Dr,,33.908257999999996,-84.185220999999999,,,0,,0
1316,1035,Lonnie Harvel Blvd & GGC Housing IB,,33.980791000000004,-84.008044999999996,,,0,,0
132,132,Boggs Rd & Meridian Apts,,33.954369,-84.094290999999998,,,0,,0
133,133,Boggs Rd & Old Norcross Rd,,33.949846999999998,-84.091046000000006,,,0,,0
134,134,Boggs Rd & NCR1 (side entrance) OB,,33.970779,-84.098714000000001,,,0,,0
135,135,Boggs Rd & PInemeadow Ct (GE) OB,,33.972920000000002,-84.099644999999995,,,0,,0
139,139,Breckinridge Blvd & Duluth Hwy,,33.976421000000002,-84.083151000000001,,,0,,0
1418,184,Buford Hwy & Andy Glass OB,,33.914541,-84.261696000000001,,,0,,0
142,142,Breckinridge Blvd & Marcos Pizza OB,,33.956629999999997,-84.112053000000003,,,0,,0
1423,462,Lawrenceville Hwy & Don Pedro OB,,33.904026000000002,-84.115881999999999,,,0,,0
144,144,3350 Breckinridge Blvd (across),,33.954926999999998,-84.120043999999993,,,0,,0
1445,866,Satellite Blvd & The Maddox Apts IB,,33.946078,-84.156475,,,0,,0
1449,693,Satellite Blvd & Gwinnett Place Ford,,33.961815999999999,-84.118870000000001,,,0,,0
145,145,Breckinridge Blvd & The Enclave @ Breck,,33.965040000000002,-84.085875999999999,,,0,,0
147,147,Breckinridge Blvd & Friendly Village,,33.975116,-84.083629999999999,,,0,,0
148,148,Breckinridge Blvd & Kia Building,,33.965648999999999,-84.085802000000001,,,0,,0
149,149,Breckinridge Blvd & Newpoint Pl,,33.971899000000001,-84.085329000000002,,,0,,0
151,151,Breckinridge Blvd & RICOH (across),,33.971404999999997,-84.085229999999996,,,0,,0
153,153,Breckinridge Blvd & Fairfield Inn,,33.950189000000002,-84.126870999999994,,,0,,0
155,155,Breckinridge Blvd & Boggs Rd,,33.961230999999998,-84.094542000000004,,,0,,0
159,159,Brook Hollow Pkwy & PepBoys,,33.917864999999999,-84.21078,,,0,,0
160,160,Brook Hollow Pkwy &Victory World Church,,33.919693000000002,-84.202831000000003,,,0,,0
161,161,Brook Hollow Pkwy & Indian Trail Rd OB,,33.930028,-84.178128999999998,,,0,,0
163,163,Brook Hollow Pkwy & Financial Dr OB,,33.918925999999999,-84.204893999999996,,,0,,0
164,164,Brook Hollow Pkwy & Mitchell Rd OB,,33.923053000000003,-84.188547,,,0,,0
165,165,Brook Hollow Pkwy & Mitchell Rd IB,,33.922730000000001,-84.189599000000001,,,0,,0
171,171,Brook Hollow Pkwy & Pinnacle Way OB,,33.927681,-84.183171999999999,,,0,,0
172,172,Brook Hollow Pkwy & Pinnacle Way IB,,33.927885000000003,-84.183267999999998,,,0,,0
174,174,Brook Hollow Pkwy & Jimmy Carter Blvd IB,,33.917962000000003,-84.207824000000002,,,0,,0
176,176,Brook Hollow Pkwy & Spring Lake Apts,,33.920051000000001,-84.200295999999994,,,0,,0
177,177,Brook Hollow Pkwy & Spring Lake Apts OB,,33.920251999999998,-84.200564999999997,,,0,,0
178,178,Brook Hollow Pkwy & EBD OB,,33.920028000000002,-84.198672999999999,,,0,,0
179,179,Brown Rd & Sugarloaf Pkwy IB,,33.985334999999999,-84.080524999999994,,,0,,0
180,180,Buford Hwy & Amwiler OB,,33.923945000000003,-84.250990999999999,,,0,,0
182,182,Buford Hwy & N Berkeley Lake Rd IB,,33.975850000000001,-84.164203000000001,,,0,,0
1838,1054,Clifton Rd & Houston Mill Rd,,33.798709000000002,-84.324010000000001,,,0,,0
186,186,Buford Hwy & East Lake Dr (across) OB,,33.922995999999998,-84.252420000000001,,,0,,0
187,187,Buford Hwy & Gravitt Tr IB,,33.973469999999999,-84.167478000000003,,,0,,0
189,189,Buford Hwy & Pine St OB,,33.929578999999997,-84.234346000000002,,,0,,0
1894,1066,Civic Center MARTA Station,,33.766278,-84.387360999999999,,,0,,0
1895,60,Beaver Ruin Rd & Buford Hwy (McD's),,33.944569000000001,-84.204421999999994,,,0,,0
1896,7,Beaver Ruin Rd & Price Pl,,33.941040000000001,-84.204013000000003,,,0,,0
1897,62,Brook Hollow Pkwy & N Norcross,,33.920808999999998,-84.214782,,,0,,0
1898,24,Central Ave @ Mitchell St,,33.749512000000003,-84.390690000000006,,,0,,0
1899,20,Civic Center MARTA Station,,33.766648000000004,-84.387647999999999,,,0,,0
1900,9,Dawson/Live Oak & Jimmy Carter Blvd,,33.907341000000002,-84.204821999999993,,,0,,0
1902,17,Gwinnett Justice & Admin Center,,33.950637,-83.995067000000006,,,0,,0
1903,67,Gwinnett Justice & Admin Center,,33.952173000000002,-83.992756999999997,,,0,,0
1904,15,Peachtree Corners Cir & Holcomb Bridge R,,33.958759000000001,-84.246874000000005,,,0,,0
1905,30,Lawrenceville Hwy & Indian Trail/Killian,,33.894851000000003,-84.140300999999994,,,0,,0
1906,65,Lawrenceville Hwy & Indian Trail Rd,,33.894945,-84.140578000000005,,,0,,0
1907,11,Live Oak Pkwy & Thompson Pkwy OB,,33.906019000000001,-84.202669,,,0,,0
1908,25,Forsyth Street @ MLK Jr. Dr. (SB),,33.752240999999998,-84.393960000000007,,,0,,0
1909,22,Martin Luther King Jr. Drive & Peachtree,,33.751922,-84.391716000000002,,,0,,0
191,191,Buford Hwy & Jones Mills Rd,,33.925893000000002,-84.247838000000002,,,0,,0
1910,58,Peachtree Pkwy & Quicktrip IBOB (End of ,,33.976678,-84.218486999999996,,,0,,0
1911,26,Peachtree Center Ave @ Andrew Young Intl,,33.759596000000002,-84.385991000000004,,,0,,0
1912,28,Shackleford Rd & Kaiser Permanente Bldg,,33.946362000000001,-84.134771999999998,,,0,,0
1913,69,Steve Reynolds Blvd & Beaver Ruin Rd,,33.929989999999997,-84.147099999999995,,,0,,0
1914,80,Baker St & Peachtree St (SunTrust),,33.762314000000003,-84.387348000000003,,,0,,0
1915,106,N Berkeley Lake Rd & The Estates Apts OB,,33.971299999999999,-84.155255999999994,,,0,,0
1916,107,N Berkeley Lake Rd & Marquis @ Nberkeley,,33.968887000000002,-84.151212000000001,,,0,,0
1917,108,N Berkeley Lake Rd & Wal-Mart OB,,33.969059000000001,-84.149375000000006,,,0,,0
1918,127,Boggs Rd & Astor Place Apartments,,33.951301000000001,-84.092138000000006,,,0,,0
1919,136,Boggs Rd & Post Office  (First Entrance),,33.958551,-84.093740999999994,,,0,,0
1920,137,Boggs Rd & Post Office (3rd entrance),,33.956657999999997,-84.094013000000004,,,0,,0
1921,143,3350 Breckinridge Blvd,,33.954203999999997,-84.121111999999997,,,0,,0
1922,162,Brook Hollow Pkwy & Chevron Gas Station,,33.930185999999999,-84.178400999999994,,,0,,0
1923,173,Brook Hollow Pkwy & Jimmy Carter Blvd OB,,33.918163,-84.207817000000006,,,0,,0
1924,181,Beaver Ruin Rd & Buford Hwy (Las Tortas),,33.943939999999998,-84.203064999999995,,,0,,0
1925,190,Buford Hwy & S. Peachtree St  OB,,33.931556,-84.225795000000005,,,0,,0
1926,202,Buford Hwy & Steve Dr OB,,33.920743000000002,-84.255511999999996,,,0,,0
1927,206,Buford Hwy & Mitchell Rd (Advance Auto) ,,33.940975999999999,-84.208991999999995,,,0,,0
1928,233,Buford Hwy & Langford Rd (Magnolia Plaza,,33.950266999999997,-84.197462999999999,,,0,,0
1929,250,Buford Hwy & Remington Park Ct,,33.964666999999999,-84.179641000000004,,,0,,0
1930,255,Burns Rd & Cliffglen Way IB,,33.910511999999997,-84.121632000000005,,,0,,0
1931,256,Burns Rd &  Garner Way,,33.910285000000002,-84.122048000000007,,,0,,0
1933,301,Courtland St & Ellis St (100/103A),,33.758490000000002,-84.384309999999999,,,0,,0
1934,316,Centerview Dr & Ferguson Elementary OB,,33.950769999999999,-84.123157000000006,,,0,,0
1935,318,Best Friend Rd & Button Gwinnett Dr OB,,33.913848000000002,-84.236614000000003,,,0,,0
1936,324,Graves Rd & McDonough Dr IB,,33.902555999999997,-84.222560000000001,,,0,,0
1937,326,Graves Rd & Osborne Dr,,33.899822999999998,-84.220848000000004,,,0,,0
1938,390,Indian Tr & Wuthering Way (CPA) IB,,33.909824999999998,-84.157203999999993,,,0,,0
1939,392,Jimmy Carter Blvd & Atlantic Blvd,,33.939537000000001,-84.236704000000003,,,0,,0
194,194,Buford Hwy & N Norcross Tucker Rd OB,,33.935271999999998,-84.215706999999995,,,0,,0
1940,419,Jimmy Carter Blvd & O'Riley,,33.922873000000003,-84.213173999999995,,,0,,0
1941,421,Jimmy Carter Blvd & Pacific Dr,,33.935445999999999,-84.227954999999994,,,0,,0
1942,434,Jimmy Carter Blvd & Pacific Dr (Granite),,33.935634999999998,-84.228432999999995,,,0,,0
1943,443,Lawrenceville Hwy & Main St,,33.892549000000002,-84.141506000000007,,,0,,0
1944,452,Lawrenceville Hwy & Harmony Grove Rd IB,,33.880772,-84.164720000000003,,,0,,0
1945,454,Lawrenceville Hwy & Harbins Rd IB,,33.888959,-84.155235000000005,,,0,,0
1946,455,Lawrenceville Hwy & Harbins Rd OB,,33.889201999999997,-84.155506000000003,,,0,,0
1947,456,Lawrenceville Hwy & Harmony Grove Rd OB,,33.881219999999999,-84.164514999999994,,,0,,0
1948,459,Lawrenceville Hwy & Kenvilla Dr IB,,33.875644000000001,-84.170503999999994,,,0,,0
1949,460,Lawrenceville Hwy & Kenvilla Dr OB,,33.876120999999998,-84.170286000000004,,,0,,0
195,195,Buford Hwy & Oakcliff Rd,,33.912027999999999,-84.264162999999996,,,0,,0
1950,464,Lawrenceville Hwy & Lilburn School Rd OB,,33.889747999999997,-84.151590999999996,,,0,,0
1951,468,Lawrenceville Suwanee Rd & Old Norcross ,,33.956685999999998,-84.018225000000001,,,0,,0
1952,477,Lawrenceville Hwy & Shell/Lilburn Animal,,33.889713999999998,-84.144679999999994,,,0,,0
1953,481,Lawrenceville Hwy & Rockbridge Rd (Walgr,,33.883544000000001,-84.161388000000002,,,0,,0
1954,486,Lawrenceville Hwy & Popeyes OB,,33.903717999999998,-84.118255000000005,,,0,,0
1955,487,Lawrenceville Hwy & Lawrenceville Pediat,,33.941921000000001,-84.012935999999996,,,0,,0
1956,497,McDonough Dr & DACA Specialty Svc OB,,33.904114999999997,-84.219756000000004,,,0,,0
1957,501,Marathon Oil  IB,,33.908827000000002,-84.271647000000002,,,0,,0
1958,520,Mitchell St & Central Ave OB,,33.749651,-84.390792000000005,,,0,,0
196,196,Buford Hwy & Simpson Cir,,33.966006999999998,-84.177781999999993,,,0,,0
1960,540,N Berkeley Lake Rd & The Estates Apts IB,,33.971260999999998,-84.155421000000004,,,0,,0
1961,542,N Berkeley Lake Road & Wal-Mart,,33.968890000000002,-84.149368999999993,,,0,,0
1962,551,Old Norcross Rd & Discovery HS IB,,33.954335,-84.036771000000002,,,0,,0
1963,553,Old Norcross Rd & Riverside Pkwy IB,,33.953327000000002,-84.026152999999994,,,0,,0
1964,555,Old Norcross Rd & Sweetwater Rd IB,,33.951723999999999,-84.100865999999996,,,0,,0
1965,558,S Norcross Tucker Rd & Checkers,,33.901336000000001,-84.205752000000004,,,0,,0
1966,561,S Norcross Tucker Rd & Graves Rd,,33.895589999999999,-84.209982999999994,,,0,,0
1967,563,S Norcorss Tucker Rd & Oakwood Cir,,33.899132000000002,-84.2072,,,0,,0
1968,574,Live Oak Pkwy at Lakeside Corporate Ct,,33.912348000000001,-84.200491999999997,,,0,,0
1969,576,Oakbrook Pkwy & Oakbrook Dr,,33.915241000000002,-84.197798000000006,,,0,,0
197,197,Buford Hwy & Summerour St IB,,33.942599999999999,-84.206509999999994,,,0,,0
1970,580,Old Norcross Rd & Sweetwater Rd OB,,33.952120000000001,-84.102462000000003,,,0,,0
1971,583,Old Norcross at the Gwinnett Body Shop,,33.955595000000002,-84.105671999999998,,,0,,0
1972,604,Peachtree Corners Cir & Autumn Trace Dr,,33.947006999999999,-84.251565999999997,,,0,,0
1973,607,Peachtree Corners Cir & Corners Ind Cir,,33.941907,-84.250066000000004,,,0,,0
1974,614,Peachtree Ctr Ave & John Wesley Dobbs Av,,33.757033,-84.386026999999999,,,0,,0
1975,615,Peachtree Corners Cir & Jones Mill Spur ,,33.945535,-84.251131000000001,,,0,,0
1976,618,Peachtree Industrial Blvd & Kingston Ct,,33.941583999999999,-84.243920000000003,,,0,,0
1977,628,Peachtree Industrial Rd & DIVOTS Sportsw,,33.953786999999998,-84.223770000000002,,,0,,0
1978,635,Peachtree Corners Cir & Brandywine Tr,,33.956463999999997,-84.248968000000005,,,0,,0
1979,636,Peachtree Corners Cir & Jones Mill Spur ,,33.944952999999998,-84.250664999999998,,,0,,0
198,198,Buford Hwy & Value Pawn OB,,33.933003999999997,-84.219842999999997,,,0,,0
1980,640,Peachtree Corners Cir & Parton Ct,,33.949603000000003,-84.251576,,,0,,0
1981,647,Philip Blvd & Walther Rd OB,,33.968584,-84.005680999999996,,,0,,0
1982,648,Philip Blvd & Walther Rd IB,,33.968688,-84.006519999999995,,,0,,0
1983,665,Lawrenceville Suwanee Rd & Professional ,,33.960462,-84.020473999999993,,,0,,0
1984,672,Reps Miller Rd & Race Track,,33.954909999999998,-84.218767999999997,,,0,,0
1985,675,Old Norcross Rd & Riverside Pkwy OB,,33.953218999999997,-84.027150000000006,,,0,,0
1986,683,Satellite Blvd & I Love Pho Restaurant I,,33.942931999999999,-84.160084999999995,,,0,,0
1987,684,Satellite Rd & Pars Cars Sales,,33.964466000000002,-84.126814999999993,,,0,,0
1988,699,Satellite Blvd & Hopkins Mill Rd IB,,33.941169000000002,-84.163515000000004,,,0,,0
1989,712,Satellite Blvd & Quicktrip OB,,33.962162999999997,-84.132392999999993,,,0,,0
199,199,Buford Hwy & West Mount Tabor,,33.970857000000002,-84.171065999999996,,,0,,0
1990,721,Satellite Blvd & 2180 Satellite Blvd,,33.984399000000003,-84.092431000000005,,,0,,0
1991,732,Satellite Blvd & Steve Reynolds Blvd IB,,33.953716,-84.142527000000001,,,0,,0
1992,737,Shackleford Rd & Corporate Dr OB,,33.941555000000001,-84.145697999999996,,,0,,0
1993,740,Shackleford Rd & Park Dr,,33.938991999999999,-84.149956000000003,,,0,,0
1995,746,Singleton Rd & Pirkle Rd IB,,33.908000000000001,-84.192442999999997,,,0,,0
1996,753,Singleton Rd & Button Gwinnett Pl IB,,33.908132000000002,-84.190484999999995,,,0,,0
1997,754,Singleton Rd & Country Downs Dr OB,,33.910656000000003,-84.173458999999994,,,0,,0
1998,760,Singleton Rd & Harbins Rd (before light),,33.908456000000001,-84.183070000000001,,,0,,0
1999,771,5925 Singleton Rd (across Steeple Chase ,,33.907460999999998,-84.195800000000006,,,0,,0
200,200,Buford Hwy & Woodbine Hill Way,,33.96904,-84.173548999999994,,,0,,0
2000,780,Koger Blvd & St Leo University OB,,33.948390000000003,-84.124274,,,0,,0
2001,787,Steve Reynolds Blvd & Falling Water Ln I,,33.916442000000004,-84.151394999999994,,,0,,0
2002,789,Steve Reynolds Blvd & Old Norcross Rd OB,,33.962246999999998,-84.141585000000006,,,0,,0
2003,799,Stone Mountain Street & Open Field,,33.935723000000003,-83.997653999999997,,,0,,0
2004,802,Sugarloaf Mills Cir by 412/410 P&R,,33.983271999999999,-84.081197000000003,,,0,,0
2005,804,Sugarloaf Mills Cir & Bass Pro Shop,,33.982385999999998,-84.084422000000004,,,0,,0
2006,819,Peachtree St & Baker St (SunTrust Plaza),,33.762636999999998,-84.387355999999997,,,0,,0
2007,821,Sweetwater Rd & Club Drive OB,,33.942298999999998,-84.127109000000004,,,0,,0
2008,835,Washington Street & Martin Luther King J,,33.750422999999998,-84.388240999999994,,,0,,0
2009,843,W P'tree St & Peachtree Pl (412/103A),,33.780586999999997,-84.387322999999995,,,0,,0
2010,871,Beaver Ruin Rd & Bailey Dr OB,,33.938764999999997,-84.189774,,,0,,0
2011,872,Beaver Ruin Rd & Child Ntwrk Daycare OB,,33.939506999999999,-84.192248000000006,,,0,,0
2012,877,Beaver Ruin Rd & Shell Gas Station,,33.932367999999997,-84.152394999999999,,,0,,0
2013,881,Boggs Rd & Caduceus Occupational Med,,33.956702999999997,-84.094299000000007,,,0,,0
2014,963,Koger Blvd & Assi Farmers Market,,33.947785000000003,-84.125101000000001,,,0,,0
2015,964,Koger Blvd & Devry University IB,,33.948799000000001,-84.122844999999998,,,0,,0
2016,911,Lawrenceville Hwy & Rockbridge Rd (Citgo,,33.882665000000003,-84.161827000000002,,,0,,0
2017,976,Lawrenceville Hwy & Wal-Mart,,33.938099000000001,-84.025582999999997,,,0,,0
2018,913,Live Oak Pkwy & Thompson Pkwy IB,,33.907259000000003,-84.203299999999999,,,0,,0
2019,922,Park Dr & Gwinnett Park Sign (across),,33.936245999999997,-84.149486999999993,,,0,,0
2020,923,Peachtree Pkwy & The Corner Bakery,,33.953851,-84.233352999999994,,,0,,0
2021,985,Peachtree Corners Cir & CHASE Bank IB,,33.977336999999999,-84.216094999999996,,,0,,0
2022,984,Peachtree Corners Cir & Davinci Ct IB,,33.977442000000003,-84.214405999999997,,,0,,0
2023,925,Peachtree Corners Cir & Gleanleaf Dr IB,,33.947259000000003,-84.251345000000001,,,0,,0
2024,926,Peachtree Corners Cir & Jones Mill Ct,,33.943959999999997,-84.250658000000001,,,0,,0
2025,927,Peachtree Corners Cir & Parton Ct OB,,33.949232000000002,-84.251962000000006,,,0,,0
2026,975,Professional Dr & 2nd 4way Stop Sign,,33.961333000000003,-84.018231,,,0,,0
2027,867,Satellite Blvd & Aviation Insitute IB,,33.950085999999999,-84.149097999999995,,,0,,0
2028,968,Shackleford Rd & Doan Way OB,,33.940294999999999,-84.148133999999999,,,0,,0
2029,932,Singleton Rd & Harbins Ridge Drive IB,,33.908248999999998,-84.186611999999997,,,0,,0
203,203,Buford Hwy at Steve Dr (Accu-Car Expo),,33.920552999999998,-84.255382999999995,,,0,,0
2030,934,Singleton Rd & Hydaburg Lane OB,,33.911512999999999,-84.169825000000003,,,0,,0
2031,960,Steve Reynolds Blvd & Windward Lane IB,,33.927159000000003,-84.147492,,,0,,0
2032,939,Steve Reynolds Blvd & Falling Water Ln O,,33.916846999999997,-84.151487000000003,,,0,,0
2033,944,Technology Pkwy at 157 Tech Pkwy,,33.961153000000003,-84.223633000000007,,,0,,0
2034,993,Lawrenceville Hwy & Bryson Park IB,,33.889192000000001,-84.148124999999993,,,0,,0
2036,997,Buford Hwy & Cornerstone Auto (across) O,,33.9285,-84.238912999999997,,,0,,0
2037,999,Lawrenceville Hwy & Car Care Service Cen,,33.899985000000001,-84.130975000000007,,,0,,0
2038,1019,Lonnie Harvel Blvd @ GGC Housing OB,,33.980668999999999,-84.008364999999998,,,0,,0
2039,1032,Lakes Pkwy & Wiegand Blvd,,33.961908000000001,-84.049248000000006,,,0,,0
2041,1016,Lakes Pkwy & Belle Meade Ct,,33.963721,-84.056531000000007,,,0,,0
2042,1038,Collins Hill Rd & Hurricane Shoals Rd IB,,33.972110000000001,-83.992811000000003,,,0,,0
2043,1012,Lakes Pkwy @ 1760 Apt Homes OB,,33.962961,-84.059691999999998,,,0,,0
2044,1039,Atkinson Rd & Farmwood Dr,,33.973100000000002,-84.076884000000007,,,0,,0
2045,1018,Lawrenceville Suwanee Rd & Lawrenceville,,33.971342999999997,-84.018006999999997,,,0,,0
2046,1052,1762 Clifton Rd,,33.801372000000001,-84.331348000000006,,,0,,0
2047,1058,Jimmy Carter Blvd & Dunkin Donuts OB,,33.904094000000001,-84.205534,,,0,,0
2048,1059,Buford Hwy & Remington Park Ct,,33.964880000000001,-84.179812999999996,,,0,,0
2049,1062,Data Drive at Vital Solutions,,33.971943000000003,-84.225568999999993,,,0,,0
205,205,Buford Hwy & S Cemetery St IB,,33.938791999999999,-84.211274000000003,,,0,,0
2050,1061,N Berkeley Lake Rd & Storage IB,,33.975304000000001,-84.161575999999997,,,0,,0
2051,1060,N Berkeley Lake Rd & Storage OB,,33.975281000000003,-84.161028999999999,,,0,,0
2052,1045,Gwinnett Medical Resource Ctr,,33.966327999999997,-84.008302999999998,,,0,,0
2053,1047,Collins Hill Rd & Hurricane Shoals Rd OB,,33.971958999999998,-83.992980000000003,,,0,,0
2054,1046,Lakes Pkwy & 1760 Apartment Homes IB,,33.963231999999998,-84.059735000000003,,,0,,0
2055,6,Doraville MARTA Station,,33.902675000000002,-84.279965000000004,,,0,,0
2056,19,I-985 @ SR20 P&R,,34.085081000000002,-83.995197000000005,,,0,,0
2057,79,Old Norcross Rd & Averitt OB,,33.953460999999997,-84.023769999999999,,,0,,0
2058,96,Beaver Ruin Rd at Pinnacle Way IB,,33.934758000000002,-84.183176000000003,,,0,,0
2059,101,Beaver Ruin Rd & Sourwood Rd OB,,33.935664000000003,-84.169088000000002,,,0,,0
2060,109,Pleasant Hill Rd & Lawrenceville Hwy OB,,33.907192999999999,-84.111581999999999,,,0,,0
2061,138,Old Norcross Rd at Brass Key Ct,,33.954118000000001,-84.035730999999998,,,0,,0
2062,210,Buford Hwy & Cambridge St,,33.951188000000002,-84.196033999999997,,,0,,0
2063,227,Buford Hwy at Jimmy Carter IB,,33.932799000000003,-84.2196,,,0,,0
2064,277,Button Gwinnett Dr & Omega Dr OB,,33.923997999999997,-84.244906,,,0,,0
2065,292,Club Dr & Crestwood Pkwy OB,,33.942393000000003,-84.132338000000004,,,0,,0
2066,327,Graves Rd & Sienna Heights Apts OB,,33.895260999999998,-84.212562000000005,,,0,,0
2067,328,Graves Rd & Champoins Park Apts OB,,33.901693999999999,-84.221328,,,0,,0
2068,330,Graves Rd & Downing Ln OB,,33.895574000000003,-84.218289999999996,,,0,,0
2069,340,Grayson Hwy & VFW IB,,33.942301999999998,-83.983106000000006,,,0,,0
2070,349,Prof Dr at the Gwinnett Prof Center #2,,33.964379000000001,-84.011488,,,0,,0
2071,384,Indian Trail Rd & KFC/WF,,33.922818999999997,-84.172651000000002,,,0,,0
2072,461,Lawrenceville Hwy & Lankford Rd IB,,33.870471999999999,-84.176011000000003,,,0,,0
2073,495,Live Oak Pkwy at Live Oak Plaza IB,,33.907874,-84.202349999999996,,,0,,0
2074,536,Old Norcross Rd & Monfort Rd,,33.954532,-84.020945999999995,,,0,,0
2075,549,Old Norcross Rd & Averritt (across) IB,,33.953719,-84.023933,,,0,,0
2076,559,Norcross Tucker Rd & Crestwood Apts,,33.897556000000002,-84.209023000000002,,,0,,0
2077,578,Oakbrook Pkwy & Oakbrook Lake Dr OB,,33.914290999999999,-84.199791000000005,,,0,,0
2078,581,Old Norcross Rd & Mill Valley Apts,,33.951343999999999,-84.100532999999999,,,0,,0
2079,585,Old Norcross Rd & Bridge,,33.953603999999999,-84.041916000000001,,,0,,0
208,208,Buford Hwy & Peach Corners Dist Ctr,,33.945984000000003,-84.202629000000002,,,0,,0
2080,595,W Peachtree St & 10th St OB,,33.781858999999997,-84.384099000000006,,,0,,0
2081,596,Peachtree St & 14th St OB,,33.786743999999999,-84.383295000000004,,,0,,0
2082,621,Peachtree Center Dr & North Ave OB,,33.771442,-84.385070999999996,,,0,,0
2083,649,Philip Blvd & Katherine Oak Ct IB,,33.967677000000002,-84.010446000000002,,,0,,0
2084,689,Satellite Blvd & Childrens Healthcare IB,,33.967225999999997,-84.101623000000004,,,0,,0
2085,714,Satellite Blvd & Steve Reynolds Blvd OB,,33.954647999999999,-84.141897,,,0,,0
2086,752,Singleton Rd & Button Gwinnett Pl OB,,33.908301999999999,-84.190781999999999,,,0,,0
2087,759,Singleton Rd & Gladiator Drive OB,,33.909090999999997,-84.180620000000005,,,0,,0
2088,765,Singleton Rd & Reddington Ln OB,,33.910328999999997,-84.174524000000005,,,0,,0
2089,773,Singleton Rd & Stonewood Dr OB,,33.908434999999997,-84.188491999999997,,,0,,0
209,209,Buford Hwy & Button Gwinnett Dr IB,,33.925874999999998,-84.247394999999997,,,0,,0
2090,816,Sugarloaf Pkwy & Gwinnett Tech (2nd Entr,,33.965842000000002,-84.066907999999998,,,0,,0
2091,962,Shackleford Rd & Doan Way IB,,33.940091000000002,-84.148247999999995,,,0,,0
2092,1005,Duluth Hwy & ALDI,,33.968783999999999,-84.028367000000003,,,0,,0
2093,1030,Lakes Pkwy & Riverside Pkwy IB,,33.963681000000001,-84.037931999999998,,,0,,0
2094,1026,Duluth Hwy & Lutheran Church,,33.969130999999997,-84.028962000000007,,,0,,0
2095,1036,Lonnie Harvel Blvd @ Sugar Oak Ln IB,,33.977837999999998,-84.012708000000003,,,0,,0
2096,562,S Norcross Tucker Rd & Rest. Las Islitas,,33.901291999999998,-84.206086999999997,,,0,,0
2097,695,Satellite Blvd & Golden Corral,,33.963031000000001,-84.122313000000005,,,0,,0
2098,830,Technology Pkwy & City Hall,,33.956915000000002,-84.225935000000007,,,0,,0
2099,48,Buford Hwy & Beaver Ruin Rd,,33.943939999999998,-84.203064999999995,,,0,,0
2100,66,Holcomb Bridge Rd & Peachtree Corners Ci,,33.958373999999999,-84.247765000000001,,,0,,0
2101,73,Atkinson Rd & Dollar Tree,,33.976278999999998,-84.078885999999997,,,0,,0
2102,103,Beaver Ruin Rd & NE Community Church OB,,33.941502999999997,-84.197569999999999,,,0,,0
2103,125,Boggs Rd & Duluth Hwy 120 IB,,33.977217000000003,-84.099942999999996,,,0,,0
2104,175,Brook Hollow & Indian Temple (1st Entran,,33.918778000000003,-84.204710000000006,,,0,,0
2105,281,Center Way Quicktrip (across),,33.919007999999998,-84.197997999999998,,,0,,0
2106,333,Graves Rd & Marquis Estates Apts OB,,33.895201,-84.216258999999994,,,0,,0
2107,404,Jimmy Carter Blvd & Granite OB,,33.93777,-84.235502999999994,,,0,,0
2108,416,Jimmy Carter Blvd & Sunrise Village Ln,,33.888412000000002,-84.194429,,,0,,0
2110,488,Lawrenceville Hwy & Pizza Hut IB,,33.903503999999998,-84.117996000000005,,,0,,0
2111,507,McDonough Dr & DACA Specialty Svc IB,,33.904130000000002,-84.220035999999993,,,0,,0
2112,541,N Berkeley Lake Rd & Marquis @ Nberkeley,,33.968741999999999,-84.151499999999999,,,0,,0
2113,600,Peachtree Ind Blvd & The Fields Apts,,33.942717000000002,-84.243341999999998,,,0,,0
2114,608,Peachtree Corners Cir & Elmside Villg Ln,,33.954369999999997,-84.250174000000001,,,0,,0
2115,616,Peachtree Ind Blvd &  Corners @ 1700 Apt,,33.940792000000002,-84.246690000000001,,,0,,0
2116,617,Peachtree Corners Cir & Klinect Court (a,,33.952205999999997,-84.251026999999993,,,0,,0
2117,627,Peachtree Corners Cir & Pineland Woods D,,33.957174999999999,-84.248857999999998,,,0,,0
2118,631,Peachtree Corners Cir& Springs Ln,,33.950490000000002,-84.251677999999998,,,0,,0
2119,637,Pechtree Corners Cir & Corners @ 1700 Ap,,33.943686999999997,-84.250310999999996,,,0,,0
212,212,Buford Hwy at Car Z Atlanta IB,,33.929779000000003,-84.232545000000002,,,0,,0
2120,685,Satellite Blvd & The Portico Apts IB,,33.948374999999999,-84.152361999999997,,,0,,0
2121,686,Satellite Blvd & The Maddox Apts (across,,33.946112999999997,-84.156807999999998,,,0,,0
2122,688,Satellite Blvd & Chick-fil-A IB,,33.987521999999998,-84.089125999999993,,,0,,0
2123,772,Singleton Rd & The Chelsea Apts IB,,33.907345999999997,-84.195466999999994,,,0,,0
2124,779,Spalding Dr & Medlock Bridge Rd (Shell),,33.968566000000003,-84.208072000000001,,,0,,0
2125,886,Brook Hollow & Indian Temple (2nd Entran,,33.919328999999998,-84.203197000000003,,,0,,0
2126,958,Burns Rd & Bradstone Trace,,33.911006999999998,-84.125243999999995,,,0,,0
2127,954,Graves Rd & Marquis Estates Apts IB,,33.895046000000001,-84.216012000000006,,,0,,0
2128,899,Indian Trail Rd & Sterling Glen OB,,33.910786999999999,-84.159119000000004,,,0,,0
2129,928,Peachtree Corners Cir & Westchase Villge,,33.956051000000002,-84.249526000000003,,,0,,0
213,213,Buford Hwy at Korean Catholic Church IB,,33.914448999999998,-84.261306000000005,,,0,,0
2130,936,S Norcross Tucker Rd & The Pointe Apartm,,33.897108000000003,-84.208985999999996,,,0,,0
2131,941,Steve Reynolds Blvd & Ashford Apts IB,,33.914535999999998,-84.154200000000003,,,0,,0
2132,994,Beaver Ruin Rd & Quick Trip,,33.932944999999997,-84.176587999999995,,,0,,0
2133,64,Live Oak Pkwy & Carter Oak Crossing,,33.907516000000001,-84.204515000000001,,,0,,0
2134,573,Dawson Blvd & Carter Center Plaza,,33.907192000000002,-84.206569000000002,,,0,,0
2137,258,Burns Rd & Burns Cir B,,33.908772999999997,-84.139887000000002,,,0,,0
2139,467,Lawrenceville Hwy & KED Plasma US OB,,33.872169999999997,-84.174708999999993,,,0,,0
2140,743,Singleton Rd & Church (Iglesia Universal,,33.904043999999999,-84.203149999999994,,,0,,0
2142,1065,Live Oak Pkwy & Wells Fargo Bank,,33.907321000000003,-84.204634999999996,,,0,,0
2144,758,Singleton Rd & ALDI Grocery Store OB,,33.903365999999998,-84.204047000000003,,,0,,0
2145,534,Central Ave @ MLK Jr Dr (NB),,33.751302000000003,-84.389381999999998,,,0,,0
2146,1031,Lakes Pkwy @ Smokey Tr,,33.963918,-84.056787,,,0,,0
2147,1003,Buford Hwy & Beaver Ruin Rd (10BIB),,33.945487999999997,-84.202807000000007,,,0,,0
2148,1067,Collins Hill Rd & Collins Industrial Way,,33.979388,-83.997675999999998,,,0,,0
215,215,Buford Hwy at Global Forum OB,,33.919255999999997,-84.257175000000004,,,0,,0
2150,535,Martin Luther King Jr. Federal Building,,33.752240999999998,-84.393960000000007,,,0,,0
216,216,Buford Hwy at Global Forum IB,,33.919089,-84.256917999999999,,,0,,0
217,217,Buford Hwy & Gravitt Tr (across) OB,,33.973837000000003,-84.167418999999995,,,0,,0
218,218,Buford Hwy at Green Auto Body IB,,33.923282,-84.251525999999998,,,0,,0
221,221,Buford Hwy at Hillside Dr IB,,33.928888999999998,-84.236401000000001,,,0,,0
222,222,Buford Hwy at Huntington Rd Apts IB,,33.931733999999999,-84.223983000000004,,,0,,0
225,225,Buford Hwy & High Tech Transmission OB,,33.917962000000003,-84.258413000000004,,,0,,0
226,226,Buford Hwy at Jenny's Place IB,,33.917349999999999,-84.258634000000001,,,0,,0
229,229,Buford Hwy & Suzanne's Kitchen,,33.975957999999999,-84.164478000000003,,,0,,0
231,231,Buford Hwy at Lake Dr IB,,33.922404999999998,-84.252859999999998,,,0,,0
234,234,Buford Hwy at Lively Ave IB,,33.936143999999999,-84.214275000000001,,,0,,0
236,236,Buford Hwy & Mitchell Rd (NAPA) IB,,33.941485999999998,-84.207868000000005,,,0,,0
237,237,Buford Hwy & N Norcross Tucker Rd,,33.934888000000001,-84.215760000000003,,,0,,0
238,238,Buford Hwy & Norcross Industrial Ct,,33.948096999999997,-84.199989000000002,,,0,,0
239,239,Buford Hwy at Oak Rd IB,,33.928393999999997,-84.238495999999998,,,0,,0
240,240,Buford Hwy & S Peachtree St IB,,33.931147000000003,-84.226641999999998,,,0,,0
241,241,Buford Hwy & Old Norcross Rd,,33.947104000000003,-84.200704999999999,,,0,,0
242,242,Buford Hwy & Payne Rd,,33.961354999999998,-84.184049999999999,,,0,,0
243,243,Buford Hwy & Phoenix Metals,,33.962111999999998,-84.183616999999998,,,0,,0
244,244,Buford Hwy & S Old Peachtree Rd OB,,33.970153000000003,-84.172552999999994,,,0,,0
245,245,Buford Hwy at Pleasantdale Rd IB,,33.924554999999998,-84.249668,,,0,,0
246,246,Buford Hwy & Pittman Cir,,33.957475000000002,-84.188548999999995,,,0,,0
247,247,Buford Hwy & Pittman Cir,,33.957960999999997,-84.188484000000003,,,0,,0
248,248,Buford Hwy & Centro Norcross Plaza IB,,33.940131999999998,-84.209598999999997,,,0,,0
249,249,Buford Hwy & Carlyle St OB,,33.938571000000003,-84.211960000000005,,,0,,0
251,251,Buford Hwy at Tofu House IB,,33.912404000000002,-84.263377000000006,,,0,,0
253,253,Buford Hwy & Simpson Cir,,33.966906999999999,-84.177060999999995,,,0,,0
254,254,Buford Hwy & Smith Ridge Trace,,33.952269000000001,-84.195132000000001,,,0,,0
259,259,Burns Rd & Beaver Ruin Rd (CVS),,33.912089000000002,-84.133225999999993,,,0,,0
260,260,Burns Rd & Beaver Ruin Rd (Chevron),,33.911915999999998,-84.133263999999997,,,0,,0
262,262,Burns Rd & Jacksons Mill Way,,33.906480000000002,-84.144542999999999,,,0,,0
263,263,Burns Rd & Jodeco Cir (across),,33.905054,-84.148139,,,0,,0
264,264,Burns Rd & Jodeco Rd,,33.904944,-84.147981999999999,,,0,,0
265,265,Burns Rd & Johns Way IB,,33.91113,-84.117949999999993,,,0,,0
266,266,Burns Rd & Johns Way,,33.911040999999997,-84.117842999999993,,,0,,0
267,267,Burns Rd & Pleasant Hill Rd OB,,33.910760000000003,-84.113761999999994,,,0,,0
268,268,Burns Rd & Shady Dr (across),,33.912182000000001,-84.129214000000005,,,0,,0
270,270,Burns Rd & Springwood Dr,,33.907412000000001,-84.142616000000004,,,0,,0
272,272,Burns Rd & Walking Ln (past),,33.911101000000002,-84.126160999999996,,,0,,0
278,278,Button Gwinnett Dr & RUSH Truck Ctr,,33.919494999999998,-84.241523000000001,,,0,,0
280,280,Button Gwinnett Rd & Ryder,,33.924089000000002,-84.244793999999999,,,0,,0
282,282,Center Way & Oakbrook Summit Entrance,,33.917008000000003,-84.196510000000004,,,0,,0
283,283,Center Way & Reece  Supply OB,,33.916972000000001,-84.196229000000002,,,0,,0
285,285,Central Ave & Wall St (100/103A),,33.752343000000003,-84.388446999999999,,,0,,0
288,288,Grayson Hwy & Associated Credit Union,,33.941890999999998,-83.98321,,,0,,0
291,291,Club Dr & Carrington Ct Apts (Court Dr),,33.942135999999998,-84.131656000000007,,,0,,0
294,294,Club Dr & Shackleford Rd,,33.942784000000003,-84.140383999999997,,,0,,0
295,295,Club Dr & Steve Reynolds Blvd,,33.942110999999997,-84.135105999999993,,,0,,0
296,296,Club Dr & Steve Reynolds Blvd OB,,33.942331000000003,-84.135434000000004,,,0,,0
300,300,Courtland St & Auburn Ave (100/103A),,33.755924999999998,-84.384348000000003,,,0,,0
302,302,Courtland St & Glimer St (100/103A),,33.753630000000001,-84.385283000000001,,,0,,0
304,304,W. Pike St & CVS Pharmacy,,33.964751,-84.008296999999999,,,0,,0
305,305,Dawson Blvd & Gateway Business Park,,33.908048999999998,-84.208551,,,0,,0
308,308,Dawson Blvd & Varsity Entrance 2,,33.908171000000003,-84.208423999999994,,,0,,0
309,309,Dawson Blvd & Varsity Entrane 1,,33.907538000000002,-84.207560000000001,,,0,,0
310,310,Koger Blvd & Devry University OB,,33.948981000000003,-84.123025999999996,,,0,,0
313,313,Duluth Hwy & Meadow Brook Pkwy IB,,33.977836000000003,-84.096909999999994,,,0,,0
314,314,Duluth Hwy  & Primerica Pkwy OB,,33.978014000000002,-84.095797000000005,,,0,,0
32,3,Gwinnett Transit Center,,33.963169000000001,-84.131208999999998,,,0,,0
323,323,Graves Rd & McDonough Dr OB,,33.902619999999999,-84.222407000000004,,,0,,0
329,329,Graves Rd & Champions Park Apts IB,,33.901705999999997,-84.221592999999999,,,0,,0
334,334,Graves Rd & E National Cir,,33.895071999999999,-84.211405999999997,,,0,,0
336,336,Grayson Hwy & Big Lots,,33.945033000000002,-83.984695000000002,,,0,,0
337,337,Grayson Hwy & Lawrenceville Square Plaza,,33.948587000000003,-83.986771000000005,,,0,,0
338,338,Grayson Hwy & Metro Matress,,33.946052999999999,-83.985287999999997,,,0,,0
350,350,Gwinnett Dr & Bridgestone Tire,,33.943243000000002,-83.992317999999997,,,0,,0
351,351,Gwinnett Dr & Town Center Cinemas OB,,33.940331999999998,-83.984885000000006,,,0,,0
352,352,Gwinnett Dr & Green Tomato OB,,33.943179000000001,-83.991867999999997,,,0,,0
353,353,Gwinnett Dr & Kroger Shopping IB,,33.940171999999997,-83.984931000000003,,,0,,0
354,354,Gwinnett Dr & Police Security Bldg,,33.946601000000001,-83.997146999999998,,,0,,0
355,355,Gwinnett Dr & HS Football Field,,33.948036999999999,-83.998220000000003,,,0,,0
356,356,Gwinnett Dr & PNC Bank,,33.941479000000001,-83.990337999999994,,,0,,0
357,357,Gwinnett Dr & Scenic Hwy OB,,33.942449000000003,-83.990716000000006,,,0,,0
358,358,Gwinnett Dr & Stone Mountain St,,33.943998999999998,-83.993521000000001,,,0,,0
360,360,Gwinnett Central High School IB,,33.949948999999997,-84.000314000000003,,,0,,0
361,361,Gwinnett Technical College,,33.963566,-84.062776999999997,,,0,,0
363,363,Old Norcross Rd & Hillandale Rd,,33.953876999999999,-84.031564000000003,,,0,,0
364,364,Holcomb Bridge Rd & Gwinnett Walk Plaza,,33.953952999999998,-84.243504999999999,,,0,,0
365,365,Holcomb Bridge Rd & Bank of America OB,,33.949696000000003,-84.233290999999994,,,0,,0
366,366,Holcomb Bridge Rd & Citgo Gas Station,,33.952823000000002,-84.242667999999995,,,0,,0
369,369,Holcomb Bridge Rd & Ryan Rd,,33.951016000000003,-84.237335999999999,,,0,,0
37,27,I-85 @ Indian Trail P&R,,33.929735000000001,-84.175443999999999,,,0,,0
370,370,Holcomb Bridge Rd & A Hand to Hold,,33.953268000000001,-84.243432999999996,,,0,,0
371,371,Holcomb Bridge Rd & Wells Fargo,,33.951405000000001,-84.239981,,,0,,0
372,372,Holcomb Bridge Rd & Woodland Rd OB,,33.957267999999999,-84.245163000000005,,,0,,0
374,374,Indian Trail Rd & Le's Auto Repair,,33.916933,-84.163811999999993,,,0,,0
375,375,Indian Trail Rd at BOEHM Travel,,33.918621000000002,-84.165211999999997,,,0,,0
376,376,Indian Trail Rd & GA Belle Ct,,33.919412000000001,-84.167214000000001,,,0,,0
377,377,Indian Trail Rd & Georgia Belle Ct,,33.919719000000001,-84.167147999999997,,,0,,0
378,378,Indian Trail Rd & GACS (2nd Entrance) OB,,33.920976000000003,-84.170006000000001,,,0,,0
379,379,Indian Trail Rd & Indian Way,,33.908318000000001,-84.157047000000006,,,0,,0
380,380,Indian Trail Rd & Market Center,,33.905245999999998,-84.155196000000004,,,0,,0
381,381,Indian Trail Rd & Checks Cashed Bldg,,33.913263000000001,-84.161259000000001,,,0,,0
382,382,Indian Trail Rd & GACS (1st Entrance) OB,,33.921948,-84.171598000000003,,,0,,0
383,383,Indian Trail Rd & Brook Plaza,,33.921205,-84.169725999999997,,,0,,0
385,385,Indian Trail Rd & Quicktrip,,33.923146000000003,-84.172471000000002,,,0,,0
386,386,Indian Trail Rd & TreeTrl Village Plz,,33.916567000000001,-84.163931000000005,,,0,,0
387,387,Indian Trail Rd & Willow Trail Pkwy OB,,33.926155999999999,-84.174902000000003,,,0,,0
388,388,Indian Trail Rd & Willow Trail Pkwy IB,,33.925778000000001,-84.174278999999999,,,0,,0
39,21,John Portman Blvd @ Peachtree Center Ave,,33.760897999999997,-84.385603000000003,,,0,,0
391,391,Jimmy Carter Blvd & Amway Products Dist,,33.935127000000001,-84.224789000000001,,,0,,0
393,393,Jimmy Carter Blvd & MJays Baked Foods,,33.940998999999998,-84.237717000000004,,,0,,0
395,395,Jimmy Carter Blvd & Veridian Bus Park,,33.941079999999999,-84.237468000000007,,,0,,0
396,396,Jimmy Carter Blvd & Cash Ct,,33.942557000000001,-84.239125000000001,,,0,,0
397,397,Jimmy Carter Blvd & Britt Rd,,33.885303,-84.191961000000006,,,0,,0
398,398,Jimmy Carter Blvd & Williams Rd,,33.885044000000001,-84.191321000000002,,,0,,0
399,399,Jimmy Carter Blvd & Los Portales Rest,,33.931074000000002,-84.221486999999996,,,0,,0
400,400,Jimmy Carter Blvd & Atlantic Blvd,,33.939815000000003,-84.236592999999999,,,0,,0
403,403,Jimmy Carter Blvd & Everest Tr,,33.878487999999997,-84.189059,,,0,,0
405,405,Jimmy Carter Blvd & Forest Vale Apts,,33.892921000000001,-84.196443000000002,,,0,,0
406,406,Jimmy Carter Blvd & NAPA,,33.892480999999997,-84.195989999999995,,,0,,0
407,407,Jimmy Carter Blvd & Best Friend Park OB,,33.928207999999998,-84.220247000000001,,,0,,0
408,408,Jimmy Carter Blvd & Gale Dr,,33.899287000000001,-84.203639999999993,,,0,,0
411,411,Jimmy Carter Blvd & Home Depot,,33.869427000000002,-84.188102000000001,,,0,,0
412,412,Jimmy Carter Blvd & Hunters Club Ln,,33.872646000000003,-84.187996999999996,,,0,,0
413,413,Jimmy Carter Blvd & Mr. Clean Carwash,,33.871929999999999,-84.187763000000004,,,0,,0
415,415,Jimmy Carter Blvd & Martins Rest OB,,33.931440000000002,-84.222071999999997,,,0,,0
418,418,Jimmy Carter Blvd & Norhtbelt Dr,,33.927379999999999,-84.219275999999994,,,0,,0
423,423,Jimmy Carter Blvd & Quick Trip OB,,33.924278000000001,-84.215926999999994,,,0,,0
424,424,Jimmy Carter Blvd & Regency Pkwy OB,,33.929772,-84.221126999999996,,,0,,0
425,425,Jimmy Carter Blvd & Rockbridge Rd (IHOP),,33.896309000000002,-84.197557000000003,,,0,,0
426,426,Jimmy Carter Blvd & SPECTRA,,33.936013000000003,-84.233752999999993,,,0,,0
427,427,Jimmy Carter Blvd & Shelby Dr,,33.895173999999997,-84.196962999999997,,,0,,0
428,428,Jimmy Carter Blvd & WalMart OB,,33.894475,-84.196516000000003,,,0,,0
430,430,Jimmy Carter Blvd & Sonic OB,,33.922778000000001,-84.213689000000002,,,0,,0
431,431,Jimmy Carter Blvd & Tracey Valley Dr,,33.899234,-84.202789999999993,,,0,,0
432,432,Jimmy Carter Blvd & Wandering Way,,33.881174999999999,-84.189920000000001,,,0,,0
433,433,Jimmy Carter Blvd & Wandering Way,,33.880856999999999,-84.189511999999993,,,0,,0
436,436,Johnson Rd & L&ing Plaza OB,,33.921208999999998,-84.007821000000007,,,0,,0
438,438,Nash St & GJAC Garage Ave,,33.949621,-83.992071999999993,,,0,,0
439,439,131 Langley Professional Building,,33.95458,-83.997366,,,0,,0
440,440,Langley Dr & Plaza Park Office,,33.955857000000002,-83.997854000000004,,,0,,0
441,441,Langley Dr & Methodist Church,,33.954712000000001,-83.997163,,,0,,0
442,442,Langley Dr & Huff St (Shell),,33.955950000000001,-83.998129000000006,,,0,,0
444,444,Lawrenceville Hwy & Hillcrest Rd OB,,33.893008000000002,-84.141654000000003,,,0,,0
445,445,Lawrenceville Hwy & Bartow Jenkins Park,,33.946561000000003,-84.006311999999994,,,0,,0
446,446,Lawrenceville Hwy& Berkmar Middle Sch OB,,33.901201,-84.126270000000005,,,0,,0
448,448,Lawrenceville Hwy & Exxon Gas Station,,33.886878000000003,-84.158097999999995,,,0,,0
449,449,Lawrenceville Hwy & PNC Bank (WalMart),,33.904257000000001,-84.113214999999997,,,0,,0
451,451,Lawrenceville Hwy & Greenwood Dr,,33.886811000000002,-84.157819000000003,,,0,,0
453,453,Lawrenceville Hwy & Hanarry Dr,,33.944761999999997,-84.009345999999994,,,0,,0
457,457,Lawrenceville Hwy & Pine St,,33.889507999999999,-84.144630000000006,,,0,,0
458,458,Lawrenceville Hwy &Tucker Valley Rd,,33.867094000000002,-84.186813999999998,,,0,,0
463,463,Lawrenceville Hwy & Lilburn School Rd,,33.88955,-84.151567999999997,,,0,,0
465,465,Lawrenceville Hwy & Linda Dr,,33.870972000000002,-84.175866999999997,,,0,,0
466,466,Lawrenceville Hwy & Mimosa Cir IB,,33.872824000000001,-84.173608999999999,,,0,,0
469,469,Lawrenceville Hwy & PepBoys,,33.904989999999998,-84.112638000000004,,,0,,0
470,470,Lawrenceville Hwy & Pizza Hut,,33.938602000000003,-84.018108999999995,,,0,,0
471,471,Lawrenceville Hwy & US Postal,,33.900697999999998,-84.127302999999998,,,0,,0
472,472,Lawrenceville Hwy & Pounds Rd,,33.868544999999997,-84.179165999999995,,,0,,0
473,473,Lawrenceville Hwy & Braxton Pl,,33.868889000000003,-84.178954000000004,,,0,,0
475,475,Lawrenceville Hwy & Providence,,33.899788000000001,-84.133519000000007,,,0,,0
476,476,Lawrenceville Suwanee & Radio Shack,,33.935493000000001,-84.028219000000007,,,0,,0
478,478,Lawrenceville Hwy & Summerwalk Pkwy,,33.867455999999997,-84.182193999999996,,,0,,0
479,479,Lawrenceville Hwy & Stone Center OB,,33.867797000000003,-84.181982000000005,,,0,,0
480,480,Lawrenceville Hwy & Citgo Gas Station,,33.867317,-84.186794000000006,,,0,,0
485,485,Lawrenceville Hwy & Arcado Rd IB,,33.902625999999998,-84.122304,,,0,,0
489,489,Lawrenceville Hwy & Little Ceasars,,33.939745000000002,-84.015851999999995,,,0,,0
493,493,Live OakPkwy & Live Oak Center,,33.909390999999999,-84.199538000000004,,,0,,0
494,494,Live Oak Pkwy & Fire Department,,33.911856,-84.200697000000005,,,0,,0
496,496,Live Oak Pkwy & Salvation Army,,33.910609999999998,-84.199693999999994,,,0,,0
498,498,McDonough Dr & Webb Dr OB,,33.904893000000001,-84.218495000000004,,,0,,0
499,499,McDonough Dr & Young Ct OB,,33.907038,-84.215805000000003,,,0,,0
504,504,McDonough Dr & Dawson Blvd (Rooms2Go),,33.909765999999998,-84.209671,,,0,,0
505,505,McDonough Dr & Fit Food (across),,33.908174000000002,-84.213435000000004,,,0,,0
506,506,McDonough Dr & Fit Food IB,,33.908220999999998,-84.213560999999999,,,0,,0
508,508,McDonough Dr & Webb Dr (APEX),,33.905414,-84.218090000000004,,,0,,0
509,509,McDonough Dr & Wilwat Dr (past street),,33.909137000000001,-84.211414000000005,,,0,,0
510,510,McDonough Dr & Young Ct IB,,33.907280999999998,-84.215592999999998,,,0,,0
511,511,Steve Reynolds Blvd at Meadow Creek HS,,33.923513,-84.147053,,,0,,0
513,513,Medlock Bridge Rd & Animal Hospital,,33.957137000000003,-84.208188000000007,,,0,,0
514,514,Medlock Bridge Rd & Chevron Gas Station,,33.962063999999998,-84.208582000000007,,,0,,0
515,515,Medlock Bridge Rd & Medlock Corners Dr,,33.963602999999999,-84.208382999999998,,,0,,0
516,516,Medlock Bridge Rd & Thai Star Restaurant,,33.960022000000002,-84.208526000000006,,,0,,0
521,521,Mitchell Rd & Everglades Tr,,33.934759999999997,-84.202377999999996,,,0,,0
522,522,Mithcell Rd & Goodwick Way (across),,33.928291000000002,-84.196164999999993,,,0,,0
523,523,Mitchell Rd & Goodwick Way,,33.928390999999998,-84.195983999999996,,,0,,0
524,524,Mitchell Rd & Co-Op Ministry,,33.931958000000002,-84.200734999999995,,,0,,0
525,525,Mitchell Rd & Co-Op Ministry,,33.932031000000002,-84.200562000000005,,,0,,0
527,527,Mitchell Rd & Price Pl,,33.938374000000003,-84.206003999999993,,,0,,0
528,528,Mitchell Rd & Everglades Tr (Shell),,33.934652999999997,-84.202516000000003,,,0,,0
529,529,Mitchell Rd & Station Cir (across),,33.926394000000002,-84.194557000000003,,,0,,0
530,530,Mitchell Rd & Station Cir,,33.926367999999997,-84.194339999999997,,,0,,0
533,533,Martin Luther King Jr Dr & Peachtree St,,33.751922,-84.391716000000002,,,0,,0
537,537,Nash St & Culver St,,33.950502999999998,-83.990013000000005,,,0,,0
539,539,Nash St & Stone Mountain St,,33.95026,-83.990013000000005,,,0,,0
545,545,Old Norcross Rd & Cntry @Sugarloaf Apts,,33.953845000000001,-84.044182000000006,,,0,,0
546,546,Old Norcross Rd & Benefield Elementary,,33.954166999999998,-84.031914,,,0,,0
547,547,Old Norcross Rd & 3100 Curtis Building,,33.955970999999998,-84.105678999999995,,,0,,0
552,552,Old Norcross Rd & Old Norcross Plaza,,33.95232,-84.102293000000003,,,0,,0
554,554,Old Norcross Rd & Sugarloaf Pkwy,,33.953131999999997,-84.050642999999994,,,0,,0
556,556,Old Norcross Rd & Tipton Industrial Dr,,33.953845000000001,-84.041955999999999,,,0,,0
557,557,S Norcross Tucker Rd & Graves Rd OB,,33.895631000000002,-84.210279,,,0,,0
560,560,S Norcross Tucker Rd & Danbury Dr OB,,33.899287999999999,-84.207372000000007,,,0,,0
564,564,Old Norcross Rd & Showroom (Raco Dr),,33.954473999999998,-84.021918999999997,,,0,,0
565,565,New Peachtree Rd at Lazaros Auto Rep IB,,33.911540000000002,-84.265912,,,0,,0
566,566,New Peachtree Rd & Longmire Way OB,,33.907938999999999,-84.272968000000006,,,0,,0
567,567,New Peachtree Rd & Longmire Way IB,,33.907440999999999,-84.273246999999998,,,0,,0
568,568,New Peachtree Rd & McElroy Rd IB,,33.910907999999999,-84.267696999999998,,,0,,0
569,569,New Peachtree Rd & McElroy Rd (BP),,33.911242999999999,-84.267236999999994,,,0,,0
570,570,Pebble Wood Apartments OB,,33.905862999999997,-84.275859999999994,,,0,,0
571,571,Live Oak Pkwy & Brookside Apartments,,33.909377999999997,-84.199280999999999,,,0,,0
572,572,Live Oak Pkwy & Oaklake Office Center,,33.910805000000003,-84.199647999999996,,,0,,0
579,579,Oakbrook Pkwy & Oakbrook Summit(2nd Ent),,33.915415000000003,-84.198126999999999,,,0,,0
582,582,Old Norcross Rd at Gwinnett Clinic,,33.957186,-84.109403,,,0,,0
584,584,Old Norcross Rd & Old Victorian Rd IB,,33.950884000000002,-84.098703,,,0,,0
586,586,Old Norcross Rd & Burnham Ridge,,33.953761,-84.039297000000005,,,0,,0
587,587,Old Norcross Rd & Breckinridge Blvd IB,,33.958660999999999,-84.111462000000003,,,0,,0
588,588,Old Norcross Rd & Breckinridge Blvd(WF),,33.958382,-84.111643000000001,,,0,,0
589,589,Old Norcrss Rd & Shell Gas Station,,33.952730000000003,-84.049847999999997,,,0,,0
590,590,Old Norcross at Stephen Gould Corp,,33.954678000000001,-84.104738999999995,,,0,,0
591,591,Old Norcross & Sweetwoods Dr,,33.949306,-84.093644999999995,,,0,,0
594,594,Park Dr & Beaver Ruin Rd OB,,33.933535999999997,-84.153156999999993,,,0,,0
597,597,Peachtree Industrial Rd & ADVA OB,,33.954819000000001,-84.221305000000001,,,0,,0
599,599,Peachtree Indust Rd & Fine Art Gallery,,33.952233999999997,-84.226757000000006,,,0,,0
602,602,Peachtree Center Ave & Auburn Ave,,33.755414999999999,-84.386066,,,0,,0
613,613,Peachtree Pkwy & Hyatt IB,,33.966354000000003,-84.222801000000004,,,0,,0
620,620,Peachtree Corners Cir & Muray's,,33.940181000000003,-84.249270999999993,,,0,,0
622,622,New Peachtree Rd & Oakcliff OB,,33.912193000000002,-84.265539000000004,,,0,,0
623,623,Peachtree Pkwy & Publix,,33.952210999999998,-84.234155000000001,,,0,,0
624,624,Peachtree Pkwy & Peachtree Corner Cir IB,,33.977353000000001,-84.217573999999999,,,0,,0
626,626,N Peachtree St & Reps Miller Road,,33.954106000000003,-84.208590000000001,,,0,,0
629,629,Peachtree Industrail Blvd & Target Plaza,,33.949984000000001,-84.230573000000007,,,0,,0
632,632,Peachtree Pkwy & Weslayan School OB,,33.974072999999997,-84.219390000000004,,,0,,0
633,633,Peachtree Corners Cir & Appletree Way IB,,33.957524999999997,-84.248172999999994,,,0,,0
634,634,Peachtree Corners Cir & Bannor Ln,,33.951068999999997,-84.251135000000005,,,0,,0
638,638,Peachtree Corners Cir & Kilnect Ct,,33.952351999999998,-84.250677999999994,,,0,,0
639,639,Peachtree Corners Cir & FIZZ IB,,33.940739999999998,-84.249251999999998,,,0,,0
64,16,Sugarloaf Pkwy & Five Forks Trickum Rd,,33.922553999999998,-84.016913000000002,,,0,,0
642,642,Peachtree Pkwy & Residence Inn Hotel,,33.974072999999997,-84.219819000000001,,,0,,0
643,643,Peachtree Pkwy Plaza IB,,33.970852999999998,-84.220793,,,0,,0
645,645,New Peachtree Rd & Pebblewood Apts,,33.905627000000003,-84.275784999999999,,,0,,0
646,646,Philip Blvd & Katherine Oaks Rd,,33.967613999999998,-84.010311999999999,,,0,,0
65,2,Sugarloaf Mills P&R,,33.983804999999997,-84.084292000000005,,,0,,0
650,650,W Pike St & McConnell Dr,,33.963445999999998,-84.007041000000001,,,0,,0
651,651,W Pike St & Buchannan St (Hertz),,33.958570000000002,-84.002043,,,0,,0
652,652,W Pike St & Honeysuckle Ave,,33.957937999999999,-83.999014000000003,,,0,,0
653,653,W Pike St & Old Norcross Rd,,33.960768000000002,-84.004716000000002,,,0,,0
654,654,W Pike St & Phoenix HS,,33.962048000000003,-84.006035999999995,,,0,,0
660,660,Pleasant Hill Rd & Lawrenceville Hwy IB,,33.908110000000001,-84.111799000000005,,,0,,0
661,661,Pleasant Hill Rd & Pleasant Hill Plaza,,33.945791999999997,-84.125361999999996,,,0,,0
662,662,Pleasant Hill Rd & Popeyes OB,,33.946382999999997,-84.126166999999995,,,0,,0
664,664,Mitchell Rd & Price Pl OB,,33.938048000000002,-84.205973,,,0,,0
666,666,Prof Dr & Second Four Way Stop Sign IB,,33.961547000000003,-84.018547999999996,,,0,,0
667,667,575 Professional Dr,,33.965009999999999,-84.011448999999999,,,0,,0
670,670,Tech Dr & Food Depot,,33.914783999999997,-84.163662000000002,,,0,,0
673,673,3119 Reps Miller Rd Office Park,,33.954363999999998,-84.215085999999999,,,0,,0
674,674,Reps Miller Rd & Wyngate (Reps Ln),,33.953721999999999,-84.212148999999997,,,0,,0
676,676,Old Norcross Rd & Winding River Dr,,33.953578,-84.044134999999997,,,0,,0
677,677,Grayson Hwy & Phillip St (Citgo),,33.945914999999999,-83.985501999999997,,,0,,0
678,678,Satellite Blvd & Marquis @ Sugarloaf IB,,33.981001999999997,-84.092562000000001,,,0,,0
679,679,Satellite Blvd & Satellite Shops,,33.963948000000002,-84.126159000000001,,,0,,0
681,681,Satellite Blvd & Bank of America IB,,33.959690000000002,-84.133027999999996,,,0,,0
682,682,Satellite Blvd & Bridgewater Apts OB,,33.947727,-84.154189000000002,,,0,,0
687,687,Satellite Blvd & Chevy Dealership,,33.963321000000001,-84.122185999999999,,,0,,0
690,690,Satellite & NCR Main Entrance OB,,33.967627,-84.101716999999994,,,0,,0
694,694,Satellite Blvd & Evergreen Blvd,,33.965007,-84.108086999999998,,,0,,0
7,32,Arts Center MARTA Station,,33.789285,-84.386904000000001,,,0,,0
700,700,Satellite Blvd & Hopkins Mill Rd,,33.941335000000002,-84.163887000000003,,,0,,0
701,701,Satellite Blvd & Satellite Square OB,,33.95655,-84.139188000000004,,,0,,0
702,702,Satellite Blvd & Enterprise Dealer IB,,33.962414000000003,-84.113658999999998,,,0,,0
703,703,Satellite Rd & NCR Office Building OB,,33.962716999999998,-84.113827999999998,,,0,,0
704,704,Satellite Blvd & InTown Suites IB,,33.956097,-84.139323000000005,,,0,,0
708,708,Satellite Blvd & Satellite Point Offices,,33.962663999999997,-84.120330999999993,,,0,,0
71,71,1535 Atkinson Rd,,33.967461,-84.071443000000002,,,0,,0
710,710,Satellite Blvd & Chow Won Buffet,,33.958114000000002,-84.136557999999994,,,0,,0
711,711,Satellite Blvd & Pond Rd,,33.940514999999998,-84.167109999999994,,,0,,0
713,713,Satellite Blvd at Recycling Center IB,,33.947381,-84.154272000000006,,,0,,0
715,715,Satellite Blvd & The Eclipse Apts OB,,33.950189000000002,-84.149394000000001,,,0,,0
716,716,Satellite Blvd & Gwinnett Square Apts OB,,33.949171999999997,-84.151444999999995,,,0,,0
719,719,Satellite Blvd & Suzuki Dealership,,33.963551000000002,-84.111041999999998,,,0,,0
720,720,Satellite Blvd at Valley Ridge Ln IB,,33.939937,-84.167550000000006,,,0,,0
722,722,Satellite Blvd & West Liddell IB,,33.951265999999997,-84.146569999999997,,,0,,0
723,723,Satellite Blvd & W Liddell Rd,,33.951279999999997,-84.147098999999997,,,0,,0
727,727,Satellite Blvd & Tandy Key Ln,,33.963566,-84.124398999999997,,,0,,0
729,729,Satellite Blvd & Midas IB,,33.957906000000001,-84.136308,,,0,,0
731,731,Satellite Blvd & BP Gas Station,,33.977970999999997,-84.093136999999999,,,0,,0
734,734,Scientific Dr & Peachtree Pkwy (UCI),,33.965358999999999,-84.222879000000006,,,0,,0
736,736,Shackleford Rd & Corporate Dr IB,,33.941298000000003,-84.145904999999999,,,0,,0
738,738,Shackleford Rd & Hotel (Sonesta),,33.948511000000003,-84.130013000000005,,,0,,0
739,739,Park Dr & Shackleford Rd,,33.938766000000001,-84.149614,,,0,,0
74,74,Atkinson & Shell Gas Station,,33.976315999999997,-84.079160000000002,,,0,,0
741,741,Shackleford Rd & Pine Rd (Building),,33.947603000000001,-84.131964999999994,,,0,,0
744,744,Singleton Rd & Harbins Rd IB,,33.908186000000001,-84.183344000000005,,,0,,0
747,747,Singleton Rd & Pirkle Rd OB,,33.908259999999999,-84.191978000000006,,,0,,0
748,748,Singleton Rd & Singleton Valley Cir (1),,33.909511000000002,-84.178420000000003,,,0,,0
749,749,Singleton Rd & Turners Ridge Dr,,33.909905999999999,-84.176956000000004,,,0,,0
750,750,Singleton Rd & Walton Way,,33.908186000000001,-84.189214000000007,,,0,,0
751,751,Singleton Rd & Santa Anna Dr,,33.912728999999999,-84.167312999999993,,,0,,0
761,761,Singleton Rd & Sarah Ct,,33.904034000000003,-84.202690000000004,,,0,,0
762,762,Singleton Rd & Metro Self Storage,,33.913164000000002,-84.165477999999993,,,0,,0
763,763,Singleton Rd & Thompson Pkwy (QT),,33.905149999999999,-84.200703000000004,,,0,,0
764,764,Singleton Rd & Thompson Pkwy,,33.904977000000002,-84.200445000000002,,,0,,0
766,766,Singleton Rd & Riva Ridge Dr,,33.911347999999997,-84.169618999999997,,,0,,0
767,767,Singleton Rd & Robin Hill Dr OB,,33.909644999999998,-84.178888999999998,,,0,,0
768,768,Singleton Rd & Sandune Dr (2nd Entrance),,33.910119999999999,-84.174392999999995,,,0,,0
769,769,Singleton Rd & Seattle Slew Ln,,33.911050000000003,-84.170541,,,0,,0
77,77,Atkinson Rd & Westfield Dr,,33.971511999999997,-84.075159999999997,,,0,,0
770,770,Singleton Rd & Singleton Valley Cir (2),,33.909694999999999,-84.176796999999993,,,0,,0
774,774,Singleton Rd & Sugarwood Ln,,33.913094000000001,-84.166746000000003,,,0,,0
775,775,Singleton Rd & Texaco Gas Station,,33.913345999999997,-84.163101999999995,,,0,,0
776,776,Singleton Rd & Williams Rd,,33.910677999999997,-84.172642999999994,,,0,,0
778,778,Spalding Dr & Norcross HS (bfr light),,33.967675999999997,-84.214945,,,0,,0
78,78,Atkinson & Willow Pointe Dr,,33.967641,-84.071988000000005,,,0,,0
781,781,Grayson Hwy & St. Lawrence Church,,33.943778000000002,-83.984256999999999,,,0,,0
784,784,Steve Reynolds Blvd & Chesdan Dr,,33.959271000000001,-84.141744000000003,,,0,,0
785,785,Steve Reynolds Blvd & 7 Coffee Shop OB,,33.958455000000001,-84.141568000000007,,,0,,0
788,788,Steve Reynolds Blvd & Hillcrest Ct,,33.913274999999999,-84.158647999999999,,,0,,0
790,790,Steve Reynolds Blvd & Oak Loch Tr,,33.914752999999997,-84.154321999999993,,,0,,0
791,791,Steve Reynolds Blvd & Old Norcross Rd,,33.963084000000002,-84.142421999999996,,,0,,0
794,794,Stone Mountian St & Boys & Girls Club OB,,33.940576,-83.994703999999999,,,0,,0
795,795,Stone Mountain St & Piedmont Bank,,33.943196,-83.993863000000005,,,0,,0
796,796,Stone Mountain St & Highgate Dr OB,,33.927017999999997,-84.008194000000003,,,0,,0
797,797,Johnson Rd & Stone Mountain St,,33.924318999999997,-84.009384999999995,,,0,,0
798,798,Stone Mountain St & Liegh Kay Apts OB,,33.929417999999998,-84.002009000000001,,,0,,0
800,800,Stone Mountain St & Somerset Dr OB,,33.938248000000002,-83.996083999999996,,,0,,0
801,801,Sugarloaf Pkwy & Taco Bell,,33.955184000000003,-84.055909999999997,,,0,,0
803,803,Sugarloaf Pkwy & Arbys,,33.955174,-84.053507999999994,,,0,,0
805,805,Sugarloaf Pkwy & Bellbrook Ln OB,,33.920575999999997,-84.010779999999997,,,0,,0
806,806,Sugarloaf Pkwy & Cisco Office,,33.957959000000002,-84.059219999999996,,,0,,0
808,808,Sugarloaf Pkwy & Marathon Blvd (McD's),,33.955917999999997,-84.056697999999997,,,0,,0
809,809,Sugarloaf Pkwy & Dunnhill Dr,,33.928001000000002,-84.024912999999998,,,0,,0
810,810,Sugarloaf Mills at the Discount Tire Co,,33.978171000000003,-84.083268000000004,,,0,,0
812,812,Sugarloaf Pkwy & Prodigy Point,,33.925581999999999,-84.019658000000007,,,0,,0
813,813,Sugarloaf Pkwy & MacLeod Indusrial Park,,33.963419000000002,-84.062312000000006,,,0,,0
814,814,Sugarloaf Pkwy & PNC Bank OB,,33.920366000000001,-84.013486999999998,,,0,,0
815,815,Sugarloaf Pkwy & The James @ Sugarloaf,,33.966101999999999,-84.066597000000002,,,0,,0
820,820,Sweetwater Rd & Club Dr (FedEx/Kinkos),,33.942242,-84.126847999999995,,,0,,0
823,823,Sweetwater Rd & Pleasant Hill Rd,,33.943483999999998,-84.125291000000004,,,0,,0
826,826,Tech Dr & Chevron Gas Station,,33.914740999999999,-84.163456999999994,,,0,,0
829,829,Technology Pkwy  & Homewood Suites,,33.955705999999999,-84.231798999999995,,,0,,0
83,83,Beaver Ruin Rd & East Hill Way OB,,33.938001999999997,-84.188190000000006,,,0,,0
831,831,Technology Pkwy & Research Dr,,33.965029000000001,-84.217781000000002,,,0,,0
833,833,Technology Pkwy & Yardi Business,,33.963524999999997,-84.218737000000004,,,0,,0
834,834,Thompson Pkwy & Singleton Rd IB,,33.905240999999997,-84.201172999999997,,,0,,0
836,836,S Clayton St & Wells Fargo,,33.948039999999999,-83.986761000000001,,,0,,0
837,837,W Pike St & W Pike Plza (Sign-o-rama),,33.957828999999997,-83.999527,,,0,,0
839,839,W Peachtree St & 14th St (412/103A),,33.78736,-84.387679000000006,,,0,,0
84,84,Beaver Ruin Rd at Bolton Cir IB,,33.934072999999998,-84.171288000000004,,,0,,0
844,844,W P'tree St & North Ave (Ponce de Leon),,33.772120999999999,-84.387259999999998,,,0,,0
85,85,Beaver Ruin Rd & Price Place IB,,33.942777,-84.201469000000003,,,0,,0
850,860,Holcomb Bridge Rd & Veranda Knolls Apts,,33.957802000000001,-84.245874999999998,,,0,,0
853,846,W Pike St & Ultra Carwash,,33.960050000000003,-84.004367000000002,,,0,,0
854,847,W Pike St & Kaceys Home Cooking Rest,,33.962389999999999,-84.006646000000003,,,0,,0
855,848,W Pike St & Midas OB,,33.958275999999998,-84.001791999999995,,,0,,0
86,86,Beaver Ruin Rd & Price Place (across) OB,,33.942982999999998,-84.201330999999996,,,0,,0
863,858,Peachtree Pkwy & Forum IB,,33.980815,-84.215304000000003,,,0,,0
866,974,Atkinson Rd & Atkinson Park Dr OB,,33.969476999999998,-84.073721000000006,,,0,,0
869,870,Beaver Ruin Rd & Red Oak Rd OB,,33.934852999999997,-84.170535000000001,,,0,,0
87,87,Beaver Ruin Rd & St. Patricks Church OB,,33.935093999999999,-84.182596000000004,,,0,,0
871,865,Beaver Ruin Rd & Standford Village Ln IB,,33.940218000000002,-84.196040999999994,,,0,,0
872,879,Button Gwinnett Dr at TOPSA,,33.914673000000001,-84.238213000000002,,,0,,0
873,880,Button Gwinnett & TOPSA,,33.914704999999998,-84.238102999999995,,,0,,0
875,950,Boggs Rd @ St. Andrews Church OB,,33.977466999999997,-84.100098000000003,,,0,,0
876,949,Boggs Rd & Meadow Brook Pkwy IB,,33.975017000000001,-84.100899999999996,,,0,,0
877,882,Breckinridge Blvd & Arlon Lane,,33.954577,-84.117067000000006,,,0,,0
878,967,Breckinridge Blvd & Arlon Ln OB,,33.95496,-84.117841999999996,,,0,,0
879,883,Breckinridge Blvd & Cascade Apartments,,33.952455999999998,-84.122911999999999,,,0,,0
88,88,Beaver Ruin Rd at Family Denstistry IB,,33.941996000000003,-84.198798999999994,,,0,,0
880,884,Breckinridge Blvd & Eldridge Rd,,33.954431999999997,-84.114546000000004,,,0,,0
881,965,Breckinridge Blvd & Executive Dr S,,33.956569999999999,-84.111726000000004,,,0,,0
882,885,Breckinridge Blvd & Mustang Unlimited,,33.970084,-84.085915999999997,,,0,,0
884,864,Buford Hwy & Gwinn Dr IB,,33.930391999999998,-84.229949000000005,,,0,,0
885,863,Buford Hwy & Pine St IB,,33.929340000000003,-84.234403,,,0,,0
886,873,Buford Hwy & Post Office OB,,33.942321,-84.207249000000004,,,0,,0
89,89,Beaver Ruin Rd & Dept of Labor IB,,33.936694000000003,-84.186198000000005,,,0,,0
890,862,Buford Hwy & Susan Ln,,33.927436999999998,-84.242583999999994,,,0,,0
891,874,Buford Hwy & Susan Ln OB,,33.927701999999996,-84.242341999999994,,,0,,0
893,889,Burns Rd & Hillcrest Rd (across),,33.905999999999999,-84.145864000000003,,,0,,0
894,890,Indian Trail Rd & Indian Trail Ct Plaza,,33.905234999999998,-84.154728000000006,,,0,,0
895,959,Burns Rd & Shady Dr,,33.912329999999997,-84.128913999999995,,,0,,0
896,891,Graves Rd & East Windsor Ln,,33.899296,-84.220670999999996,,,0,,0
897,892,Graves Rd & Graves Mill Dr,,33.895499999999998,-84.218577999999994,,,0,,0
899,893,Graves Park Entrance,,33.897433999999997,-84.220736000000002,,,0,,0
90,90,Beaver Ruin Rd & Rockborough Tr (DMV),,33.936633,-84.185361,,,0,,0
900,894,Graves Park Entrance (across),,33.897221000000002,-84.220479999999995,,,0,,0
901,895,Holcomb Bridge Rd & The Centre Apts,,33.950763000000002,-84.239114999999998,,,0,,0
902,980,Holcomb Bridge Rd & The Veiws Apts,,33.955559999999998,-84.244884999999996,,,0,,0
903,987,Holcomb Bridge Rd & Woodmont Land Apts,,33.955516000000003,-84.244553999999994,,,0,,0
905,897,Indian Trail Rd & Steve Reynolds Blvd,,33.913310000000003,-84.160959000000005,,,0,,0
906,898,Indian Trail Rd & Wellington Sq Plaza,,33.907544999999999,-84.156571999999997,,,0,,0
907,900,6695 Jimmy Carter Blvd,,33.936508000000003,-84.234044999999995,,,0,,0
908,901,Jimmy Carter Blvd & Best Friend Rd IB,,33.924638000000002,-84.215897999999996,,,0,,0
91,91,Beaver Ruin Rd at Huddersfield Way IB,,33.939450999999998,-84.193154000000007,,,0,,0
910,903,Jimmy Carter Blvd & Maxzone Depo,,33.93535,-84.230650999999995,,,0,,0
911,904,Jimmy Carter Blvd & Everest Tr OB,,33.877768000000003,-84.188564,,,0,,0
912,905,Jimmy Carter Blvd & Meadowbrook Dr OB,,33.887917000000002,-84.193897000000007,,,0,,0
913,906,Jimmy Carter Blvd & Best Friend Park,,33.928521000000003,-84.220021000000003,,,0,,0
914,972,Jimmy Carter Blvd & Rockbridge School Rd,,33.897280000000002,-84.198798999999994,,,0,,0
915,907,Jimmy Carter Blvd & RR Tracks,,33.938048999999999,-84.235358000000005,,,0,,0
916,908,Jimmy Carter Blvd & S Peachtree St,,33.933376000000003,-84.222825999999998,,,0,,0
917,978,Jimmy Carter Blvd & W Peachtree St,,33.935271999999998,-84.224564000000001,,,0,,0
92,92,Beaver Ruin Rd & Indian Trail Rd OB,,33.933095999999999,-84.179327000000001,,,0,,0
920,909,Lawrenceville Hwy & BBT Bank IB,,33.897682000000003,-84.138138999999995,,,0,,0
921,970,Lawrenceville Hwy & Beaver Ruin Rd OB,,33.903030000000001,-84.122303000000002,,,0,,0
922,910,Lawrenceville Hwy & Bryson Park OB,,33.889423999999998,-84.148105000000001,,,0,,0
923,971,Lawrenceville Hwy & Merchants Walk OB,,33.900284999999997,-84.130877999999996,,,0,,0
926,912,Lawrenceville Hwy & Wynne Russell Dr,,33.898304000000003,-84.137732,,,0,,0
927,955,Live Oak Pkwy & Live Oak Plaza OB,,33.907383000000003,-84.202505000000002,,,0,,0
929,914,McDonough Dr & Dawson Blvd,,33.909557,-84.209553999999997,,,0,,0
930,952,McDonough Dr & Wilwat Dr (ACE) IB,,33.909112999999998,-84.211697000000001,,,0,,0
931,986,Medlock Bridge Rd & P'tree Corners Cir,,33.978591000000002,-84.211436000000006,,,0,,0
932,977,N Norcross Tucker Rd & Pelican Dr IB,,33.920870999999998,-84.212701999999993,,,0,,0
933,988,N Norcross Tucker Rd & Pelican Dr,,33.920915000000001,-84.212907999999999,,,0,,0
934,861,New Peachtree Rd & Burlington Sign IB,,33.910325999999998,-84.269420999999994,,,0,,0
935,918,New Peachtree Rd & Burlington Sign OB,,33.910533000000001,-84.269399000000007,,,0,,0
936,915,Old Norcross Rd & Arbors @Breckinridge,,33.954292000000002,-84.104100000000003,,,0,,0
937,973,Old Norcross Rd & Boggs Rd IB,,33.949269999999999,-84.092703999999998,,,0,,0
938,916,Old Norcross Rd & Burnham Ridge,,33.954042999999999,-84.039078000000003,,,0,,0
939,917,Old Norcross Rd & Old Victorian Rd IB,,33.951191000000001,-84.098894999999999,,,0,,0
94,94,Beaver Ruin Rd at Lowes IB,,33.932783999999998,-84.175556999999998,,,0,,0
940,961,Park Dr & Communications Dr IB,,33.936182000000002,-84.149358000000007,,,0,,0
943,983,Peachtree Pkwy & Piedmont Bank,,33.982740999999997,-84.213914000000003,,,0,,0
944,924,Peachtree Pkwy & Triangle Dr,,33.972893999999997,-84.221072000000007,,,0,,0
95,95,Beaver Ruin Rd at Newbury Rd IB,,33.939041000000003,-84.191337000000004,,,0,,0
953,957,Burns Shopping Ctr & Pleasant Hill Rd IB,,33.911330999999997,-84.115291999999997,,,0,,0
957,868,Satellite Blvd & Evergreen Blvd IB,,33.964582999999998,-84.108497999999997,,,0,,0
959,869,Satellite Blvd & Merritt Apartments OB,,33.963791999999998,-84.111153999999999,,,0,,0
960,951,Satellite Blvd & Public Storage OB,,33.943424,-84.159893999999994,,,0,,0
961,982,Scientific Dr & Meridian Business Plza,,33.965648000000002,-84.219846000000004,,,0,,0
962,981,Scientific Dr & Technology Pkwy,,33.966233000000003,-84.218421000000006,,,0,,0
966,953,Singleton Rd & Harbins Ridge Dr OB,,33.908462999999998,-84.187042000000005,,,0,,0
97,97,Beaver Ruin Rd at Plaza IB,,33.933141999999997,-84.180305000000004,,,0,,0
970,937,Spalding Dr & Bank of America,,33.969580000000001,-84.219994,,,0,,0
971,938,Spalding Dr & Technology Pkwy,,33.968229999999998,-84.217460000000003,,,0,,0
974,940,Steve Reynolds Blvd & Fire Station OB,,33.923878000000002,-84.147418999999999,,,0,,0
975,969,Steve Reynolds Blvd & Hillcrest Ct OB,,33.913606000000001,-84.158634000000006,,,0,,0
977,942,Stone Mountain St & Charleston Ln,,33.933841999999999,-83.998771000000005,,,0,,0
978,943,Stone Mountain St & Charter St,,33.931927999999999,-83.999947000000006,,,0,,0
980,945,Technology Pkwy near Hampton Inn,,33.955421999999999,-84.229585999999998,,,0,,0
983,948,Technology Pkwy & Technology Pkwy South,,33.962206000000002,-84.220189000000005,,,0,,0
984,992,2700 Breckinridge Blvd,,33.959907000000001,-84.101795999999993,,,0,,0
986,989,3300 Breckinridge Blvd,,33.954824000000002,-84.119468999999995,,,0,,0
987,991,Breckinridge Blvd & Breckinridge Pkwy,,33.960065,-84.105783000000002,,,0,,0
990,1004,Collins Hill Rd & Park Access Dr OB,,33.973657000000003,-83.993662,,,0,,0
993,1001,Breckinridge & Mustangs Unltd OB across,,33.969749999999998,-84.085588999999999,,,0,,0
994,996,Buford Hwy & CarZ (across) OB,,33.930044000000002,-84.232247999999998,,,0,,0
996,995,Buford Hwy & WA Credit Dealer (Gwin Dr),,33.930641999999999,-84.229837000000003,,,0,,0
997,998,Jimmy Carter Blvd & Paces Crossing Apts,,33.875213000000002,-84.188042999999993,,,0,,0
999,1000,Lawrenceville Hwy & Jordan Drive OB,,33.878677000000003,-84.167687000000001,,,0,,0
